,airport,country,county,distance(km),lat,long,state/province
0,John F. Kennedy International,US,Kings,14.461959490307683,40.6361825,-73.94935552,New York
1,John F. Kennedy International,US,Lewis,375.0910545396881,43.7844157,-75.44903992,New York
2,John F. Kennedy International,US,Nassau,19.09766497722639,40.74066522,-73.58941873,New York
3,John F. Kennedy International,US,Queens,7.9051917848601,40.71088124,-73.81684712,New York
4,John F. Kennedy International,US,Suffolk,86.42275268931296,40.88320119,-72.8012172,New York
